{ "type": "FeatureCollection",
    "features": [
		{ "type": "Feature",
        "geometry": {"type": "Point", "coordinates": [2.29576268465124, 48.8744076036607]},
        "properties": { "station": "Charles de Gaulle-Etoile",
						"color":  [121, 187, 146],
						"ID": "1953",
						"status" : "opened"}
        },
		{ "type": "Feature",
        "geometry": {"type": "Point", "coordinates": [2.29307915421584, 48.8710948130145]},
        "properties": { "station": "Kléber",
						"color":  [121, 187, 146],
						"ID": "1867",
						"status" : "opened"}
        },
		{ "type": "Feature",
        "geometry": {"type": "Point", "coordinates": [2.29047384540453, 48.8670270457182]},
        "properties": { "station": "Boissière",
						"color":  [121, 187, 146],
						"ID": "2012",
						"status" : "opened"}
        },
		{ "type": "Feature",
        "geometry": {"type": "Point", "coordinates": [2.2870198439694, 48.8629708358403]},
        "properties": { "station": "Trocadéro",
						"color":  [121, 187, 146],
						"ID": "1639",
						"status" : "opened"}
        },
		{ "type": "Feature",
        "geometry": {"type": "Point", "coordinates": [2.28586501138629, 48.8576333212361]},
        "properties": { "station": "Passy",
						"color":  [121, 187, 146],
						"ID": "1780",
						"status" : "opened"}
        },
		{ "type": "Feature",
        "geometry": {"type": "Point", "coordinates": [2.28878285580103, 48.8543331586284]},
        "properties": { "station": "Bir-Hakeim (Grenelle)",
						"color":  [121, 187, 146],
						"ID": "2007",
						"status" : "opened"}
        },	
		{ "type": "Feature",
        "geometry": {"type": "Point", "coordinates": [2.29276958714394, 48.8508056365633]},
        "properties": { "station": "Dupleix",
						"color":  [121, 187, 146],
						"ID": "1907",
						"status" : "opened"}
        },
		{ "type": "Feature",
        "geometry": {"type": "Point", "coordinates": [2.29794929910712, 48.8491605024288]},
        "properties": { "station": "La Motte-Picquet-Grenelle",
						"color":  [121, 187, 146],
						"ID": "1874",
						"status" : "opened"}
        },
		{ "type": "Feature",
        "geometry": {"type": "Point", "coordinates": [2.30180780419231, 48.8474563362776]},
        "properties": { "station": "Cambronne",
						"color":  [121, 187, 146],
						"ID": "1940",
						"status" : "opened"}
        },
		{ "type": "Feature",
        "geometry": {"type": "Point", "coordinates": [2.31018390371145, 48.8451307700065]},
        "properties": { "station": "Sèvres-Lecourbe",
						"color":  [121, 187, 146],
						"ID": "1633",
						"status" : "opened"}
        },
		{ "type": "Feature",
        "geometry": {"type": "Point", "coordinates": [2.31265644504969, 48.8429383503106]},
        "properties": { "station": "Pasteur",
						"color":  [121, 187, 146],
						"ID": "1781",
						"status" : "opened"}
        },
		{ "type": "Feature",
        "geometry": {"type": "Point", "coordinates": [2.32263505064878, 48.8430428502558]},
        "properties": { "station": "Montparnasse-Bienvenue",
						"color":  [121, 187, 146],
						"ID": "1751",
						"status" : "opened"}
        },
		{ "type": "Feature",
        "geometry": {"type": "Point", "coordinates": [2.3261713916465, 48.8403339877984]},
        "properties": { "station": "Edgar-Quinet",
						"color":  [121, 187, 146],
						"ID": "1910",
						"status" : "opened"}
        },
		{ "type": "Feature",
        "geometry": {"type": "Point", "coordinates": [2.33058309684112, 48.8389637143162]},
        "properties": { "station": "Raspail",
						"color":  [121, 187, 146],
						"ID": "1660",
						"status" : "opened"}
        },
		{ "type": "Feature",
        "geometry": {"type": "Point", "coordinates": [2.33189346001924, 48.8335919035577]},
        "properties": { "station": "Denfert-Rochereau",
						"color":  [121, 187, 146],
						"ID": "1902",
						"status" : "opened"}
        },
		{ "type": "Feature",
        "geometry": {"type": "Point", "coordinates": [2.33622001540028, 48.8332522883745]},
        "properties": { "station": "Saint-Jacques",
						"color":  [121, 187, 146],
						"ID": "1688",
						"status" : "opened"}
        },
		{ "type": "Feature",
        "geometry": {"type": "Point", "coordinates": [2.34393889430969, 48.8313647071449]},
        "properties": { "station": "Glacière",
						"color":  [121, 187, 146],
						"ID": "1848",
						"status" : "opened"}
        },
		{ "type": "Feature",
        "geometry": {"type": "Point", "coordinates": [2.34943832730731, 48.8296116848646]},
        "properties": { "station": "Corvisart",
						"color":  [121, 187, 146],
						"ID": "1890",
						"status" : "opened"}
        },
		{ "type": "Feature",
        "geometry": {"type": "Point", "coordinates": [2.35572137338498, 48.8314061535553]},
        "properties": { "station": "Place d'Italie",
						"color":  [121, 187, 146],
						"ID": "1789",
						"status" : "opened"}
        },
		{ "type": "Feature",
        "geometry": {"type": "Point", "coordinates": [2.36204546183122, 48.8327104551183]},
        "properties": { "station": "Nationale",
						"color":  [121, 187, 146],
						"ID": "1761",
						"status" : "opened"}
        },
		{ "type": "Feature",
        "geometry": {"type": "Point", "coordinates": [2.36716524071823, 48.8344079354527]},
        "properties": { "station": "Chevaleret",
						"color":  [121, 187, 146],
						"ID": "1959",
						"status" : "opened"}
        },
		{ "type": "Feature",		
        "geometry": {"type": "Point", "coordinates": [2.37958296880394, 48.8404280893475]},
        "properties": { "station": "Bercy",
						"color":  [121, 187, 146],
						"ID": "2005",
						"status" : "opened"}
        },
		{ "type": "Feature",		
        "geometry": {"type": "Point", "coordinates": [2.38895257216093, 48.8389122332307]},
        "properties": { "station": "Dugommier",
						"color":  [121, 187, 146],
						"ID": "1906",
						"status" : "opened"}
        },
		{ "type": "Feature",		
        "geometry": {"type": "Point", "coordinates": [2.39584590805199, 48.8393629125482]},
        "properties": { "station": "Daumesnil (Félix Eboué)",
						"color":  [121, 187, 146],
						"ID": "1901",
						"status" : "opened"}
        },
		{ "type": "Feature",		
        "geometry": {"type": "Point", "coordinates": [2.40120562705964, 48.8418961424237]},
        "properties": { "station": "Bel-Air",
						"color":  [121, 187, 146],
						"ID": "2003",
						"status" : "opened"}
        },
		{ "type": "Feature",		
        "geometry": {"type": "Point", "coordinates": [2.40125516453104, 48.8452604478542]},
        "properties": { "station": "Picpus",
						"color":  [121, 187, 146],
						"ID": "1785",
						"status" : "opened"}
        },
		{ "type": "Feature",		
        "geometry": {"type": "Point", "coordinates": [2.39590574456544, 48.8484657505532]},
        "properties": { "station": "Nation",
						"color":  [121, 187, 146],
						"ID": "1758",
						"status" : "opened"}
        }
	],		
	"properties": { "line": "line_6",
						"color":  [121, 187, 146]}
}