{ "type": "FeatureCollection",
    "features": [
		{ "type": "Feature",
        "geometry": {"type": "Point", "coordinates": [2.44962071744096, 48.9069699442981]},
        "properties": { "station": "Bobigny-Pablo-Picasso",
						"color":  [222, 139, 83],
						"ID": "2010",
						"status" : "opened"}
        },
		{ "type": "Feature",
        "geometry": {"type": "Point", "coordinates": [2.42480187771966, 48.8952689905167]},
        "properties": { "station": "Bobigny-Pantin (Raymond Queneau)",
						"color":  [222, 139, 83],
						"ID": "2011",
						"status" : "opened"}
        },
		{ "type": "Feature",
        "geometry": {"type": "Point", "coordinates": [2.41328568033304, 48.893113981741]},
        "properties": { "station": "Eglise de Pantin",
						"color":  [222, 139, 83],
						"ID": "1912",
						"status" : "opened"}
        },
		{ "type": "Feature",
        "geometry": {"type": "Point", "coordinates": [2.40319741378238, 48.8913165639098]},
        "properties": { "station": "Hoche",
						"color":  [222, 139, 83],
						"ID": "1853",
						"status" : "opened"}
        },
		{ "type": "Feature",
        "geometry": {"type": "Point", "coordinates": [2.39146861403051, 48.8883327364608]},
        "properties": { "station": "Porte de Pantin",
						"color":  [222, 139, 83],
						"ID": "1728",
						"status" : "opened"}
        },
		{ "type": "Feature",
        "geometry": {"type": "Point", "coordinates": [2.38602958795485, 48.8869750227319]},
        "properties": { "station": "Ourcq",
						"color":  [222, 139, 83],
						"ID": "1773",
						"status" : "opened"}
        },	
		{ "type": "Feature",
        "geometry": {"type": "Point", "coordinates": [2.3795955531979, 48.8850422338428]},
        "properties": { "station": "Laumière",
						"color":  [222, 139, 83],
						"ID": "1882",
						"status" : "opened"}
        },
		{ "type": "Feature",
        "geometry": {"type": "Point", "coordinates": [2.37023181919226, 48.8825437461168]},
        "properties": { "station": "Jaurès",
						"color":  [222, 139, 83],
						"ID": "1861",
						"status" : "opened"}
        },
		{ "type": "Feature",
        "geometry": {"type": "Point", "coordinates": [2.3670850145355, 48.88430478953]},
        "properties": { "station": "Stalingrad",
						"color":  [222, 139, 83],
						"ID": "1627",
						"status" : "opened"}
        },
		{ "type": "Feature",
        "geometry": {"type": "Point", "coordinates": [2.35470307836603, 48.8799654432891]},
        "properties": { "station": "Gare du Nord",
						"color":  [222, 139, 83],
						"ID": "1842",
						"status" : "opened"}
        },
		{ "type": "Feature",
        "geometry": {"type": "Point", "coordinates": [2.35791867724751, 48.8760613055252]},
        "properties": { "station": "Gare de l'Est (Verdun)",
						"color":  [222, 139, 83],
						"ID": "1841",
						"status" : "opened"}
        },
		{ "type": "Feature",
        "geometry": {"type": "Point", "coordinates": [2.36053788394075, 48.8709749040173]},
        "properties": { "station": "Jacques-Bonsergent",
						"color":  [222, 139, 83],
						"ID": "1859",
						"status" : "opened"}
        },
		{ "type": "Feature",
        "geometry": {"type": "Point", "coordinates": [2.36366959820676, 48.8674860390566]},
        "properties": { "station": "République",
						"color":  [222, 139, 83],
						"ID": "1679",
						"status" : "opened"}
        },
		{ "type": "Feature",
        "geometry": {"type": "Point", "coordinates": [2.36867423637139, 48.8645156235565]},
        "properties": { "station": "Oberkampf",
						"color":  [222, 139, 83],
						"ID": "1769",
						"status" : "opened"}
        },
		{ "type": "Feature",
        "geometry": {"type": "Point", "coordinates": [2.3720977804711, 48.8608927535125]},
        "properties": { "station": "Richard-Lenoir",
						"color":  [222, 139, 83],
						"ID": "1664",
						"status" : "opened"}
        },
		{ "type": "Feature",
        "geometry": {"type": "Point", "coordinates": [2.3709371333348, 48.8565162145681]},
        "properties": { "station": "Bréguet-Sabin",
						"color":  [222, 139, 83],
						"ID": "1933",
						"status" : "opened"}
        },
		{ "type": "Feature",
        "geometry": {"type": "Point", "coordinates": [2.36918060506559, 48.8528417309667]},
        "properties": { "station": "Bastille",
						"color":  [222, 139, 83],
						"ID": "2000",
						"status" : "opened"}
        },
		{ "type": "Feature",
        "geometry": {"type": "Point", "coordinates": [2.36703563413483, 48.8457951983436]},
        "properties": { "station": "Quai de la Rapée",
						"color":  [222, 139, 83],
						"ID": "1743",
						"status" : "opened"}
        },
		{ "type": "Feature",
        "geometry": {"type": "Point", "coordinates": [2.36431304821499, 48.8431055835176]},
        "properties": { "station": "Gare d'Austerlitz",
						"color":  [222, 139, 83],
						"ID": "1838",
						"status" : "opened"}
        },
		{ "type": "Feature",
        "geometry": {"type": "Point", "coordinates": [2.36140877914038, 48.8395141857768]},
        "properties": { "station": "Saint-Marcel",
						"color":  [222, 139, 83],
						"ID": "1691",
						"status" : "opened"}
        },
		{ "type": "Feature",
        "geometry": {"type": "Point", "coordinates": [2.35815314107711, 48.8357759721732]},
        "properties": { "station": "Campo-Formio",
						"color":  [222, 139, 83],
						"ID": "1941",
						"status" : "opened"}
        },
		{ "type": "Feature",		
        "geometry": {"type": "Point", "coordinates": [2.35572137338498, 48.8314061535553]},
        "properties": { "station": "Place d'Italie",
						"color":  [222, 139, 83],
						"ID": "1789",
						"status" : "opened"}
        }
	],		
	"properties": { "line": "line_5",
						"color":  [222, 139, 83]}
}
