{ "type": "FeatureCollection",
    "features": [
		{ "type": "Feature",
        "geometry": {"type": "Point", "coordinates": [2.326185658552, 48.8755778691635]},
        "properties": { "station": "Saint-Lazare",
						"color":  [103,50,142],
						"ID": "1689",
						"status" : "opened"}
        },
		{ "type": "Feature",
        "geometry": {"type": "Point", "coordinates": [2.32516370025939, 48.8700643517776]},
        "properties": { "station": "Madeleine",
						"color":  [103,50,142],
						"ID": "1813",
						"status" : "opened"}
        },
		{ "type": "Feature",
        "geometry": {"type": "Point", "coordinates": [2.33366506577888, 48.8669463020695]},
        "properties": { "station": "Pyramides",
						"color":  [103,50,142],
						"ID": "1738",
						"status" : "opened"}
        },
		{ "type": "Feature",
        "geometry": {"type": "Point", "coordinates": [2.34711940104793, 48.8585195224421]},
        "properties": { "station": "Châtelet",
						"color":  [103,50,142],
						"ID": "1964",
						"status" : "opened"}
        },
		{ "type": "Feature",
        "geometry": {"type": "Point", "coordinates": [2.37406590751466, 48.8447045450658]},
        "properties": { "station": "Gare de Lyon",
						"color":  [103,50,142],
						"ID": "1839",
						"status" : "opened"}
        },
		{ "type": "Feature",
        "geometry": {"type": "Point", "coordinates": [2.37958296880394, 48.8404280893475]},
        "properties": { "station": "Bercy",
						"color":  [103,50,142],
						"ID": "2005",
						"status" : "opened"}
        },	
		{ "type": "Feature",
        "geometry": {"type": "Point", "coordinates": [2.38761298844824, 48.8334843071503]},
        "properties": { "station": "Cour Saint-Emilion",
						"color":  [103,50,142],
						"ID": "50005",
						"status" : "opened"}
        },
		{ "type": "Feature",
        "geometry": {"type": "Point", "coordinates": [2.3760926116913, 48.8296059726948]},
        "properties": { "station": "Bibliothèque François Mitterand",
						"color":  [103,50,142],
						"ID": "51020",
						"status" : "opened"}
        },
		{ "type": "Feature",
        "geometry": {"type": "Point", "coordinates": [2.36729701204889, 48.8268582996999]},
        "properties": { "station": "Olympiades",
						"color":  [103,50,142],
						"ID": "171507",
						"status" : "opened"}
        }
	],
	"properties": { "line": "line_14",
						"color":  [103,50,142]}
     }