{ "type": "FeatureCollection",
    "features": [
		{ "type": "Feature",
        "geometry": {"type": "Point", "coordinates": [2.23788279833084, 48.8919344692345]},
        "properties": { "station": "La Défense (Grande Arche)",
						"color":  [242,201,49],
						"ID": "1850",
						"status" : "opened"}
        },
		{ "type": "Feature",
        "geometry": {"type": "Point", "coordinates": [2.25044232471862, 48.887843122138]},
        "properties": { "station": "Esplanade de la Défense",
						"color":  [242,201,49],
						"ID": "1913",
						"status" : "opened"}
        },
		{ "type": "Feature",
        "geometry": {"type": "Point", "coordinates": [2.25989172465632, 48.8845093796136]},
        "properties": { "station": "Pont de Neuilly",
						"color":  [242,201,49],
						"ID": "1709",
						"status" : "opened"}
        },
		{ "type": "Feature",
        "geometry": {"type": "Point", "coordinates": [2.27253908542214, 48.880901799077]},
        "properties": { "station": "Les Sablons (Jardin d'acclimatation)",
						"color":  [242,201,49],
						"ID": "1802",
						"status" : "opened"}
        },
		{ "type": "Feature",
        "geometry": {"type": "Point", "coordinates": [2.28183617255428, 48.877964502968]},
        "properties": { "station": "Porte Maillot",
						"color":  [242,201,49],
						"ID": "1716",
						"status" : "opened"}
        },
		{ "type": "Feature",
        "geometry": {"type": "Point", "coordinates": [2.2893216639617, 48.875533092935]},
        "properties": { "station": "Argentine",
						"color":  [242,201,49],
						"ID": "1986",
						"status" : "opened"}
        },	
		{ "type": "Feature",
        "geometry": {"type": "Point", "coordinates": [2.29576268465124, 48.8744076036607]},
        "properties": { "station": "Charles de Gaulle-Etoile",
						"color":  [242,201,49],
						"ID": "1953",
						"status" : "opened"}
        },
		{ "type": "Feature",
        "geometry": {"type": "Point", "coordinates": [2.30046268343343, 48.8719825731694]},
        "properties": { "station": "George V",
						"color":  [242,201,49],
						"ID": "1846",
						"status" : "opened"}
        },
		{ "type": "Feature",
        "geometry": {"type": "Point", "coordinates": [2.30830876451203, 48.8693052286485]},
        "properties": { "station": "Franklin-Roosevelt",
						"color":  [242,201,49],
						"ID": "1924",
						"status" : "opened"}
        },
		{ "type": "Feature",
        "geometry": {"type": "Point", "coordinates": [2.31395945009909, 48.8674114214171]},
        "properties": { "station": "Champs-Elysées-Clémenceau",
						"color":  [242,201,49],
						"ID": "1949",
						"status" : "opened"}
        },
		{ "type": "Feature",
        "geometry": {"type": "Point", "coordinates": [2.32329987859148, 48.8661829956315]},
        "properties": { "station": "Concorde",
						"color":  [242,201,49],
						"ID": "1885",
						"status" : "opened"}
        },
		{ "type": "Feature",
        "geometry": {"type": "Point", "coordinates": [2.33031418026416, 48.8644970966975]},
        "properties": { "station": "Tuileries",
						"color":  [242,201,49],
						"ID": "1640",
						"status" : "opened"}
        },
		{ "type": "Feature",
        "geometry": {"type": "Point", "coordinates": [2.33581661194832, 48.8628468213553]},
        "properties": { "station": "Palais-Royal (Musée du Louvre)",
						"color":  [242,201,49],
						"ID": "1774",
						"status" : "opened"}
        },
		{ "type": "Feature",
        "geometry": {"type": "Point", "coordinates": [2.34100049025543, 48.8605382946574]},
        "properties": { "station": "Louvre-Rivoli",
						"color":  [242,201,49],
						"ID": "1809",
						"status" : "opened"}
        },		
		{ "type": "Feature",
        "geometry": {"type": "Point", "coordinates": [2.34711940104793, 48.8585195224421]},
        "properties": { "station": "Châtelet",
						"color":  [242,201,49],
						"ID": "1964",
						"status" : "opened"}
        },		
		{ "type": "Feature",
        "geometry": {"type": "Point", "coordinates": [2.35149453979435, 48.8567695272423]},
        "properties": { "station": "Hôtel de Ville",
						"color":  [242,201,49],
						"ID": "1855",
						"status" : "opened"}
        },
		{ "type": "Feature",
        "geometry": {"type": "Point", "coordinates": [2.36065335403361, 48.8551436006388]},
        "properties": { "station": "Saint-Paul (Le Marais)",
						"color":  [242,201,49],
						"ID": "1695",
						"status" : "opened"}
        },	
		{ "type": "Feature",
        "geometry": {"type": "Point", "coordinates": [2.36918060506559, 48.8528417309667]},
        "properties": { "station": "Bastille",
						"color":  [242,201,49],
						"ID": "2000",
						"status" : "opened"}
        },	
		{ "type": "Feature",
        "geometry": {"type": "Point", "coordinates": [2.37406590751466, 48.8447045450658]},
        "properties": { "station": "Gare de Lyon",
						"color":  [242,201,49],
						"ID": "1839",
						"status" : "opened"}
        },	
		{ "type": "Feature",
        "geometry": {"type": "Point", "coordinates": [2.38611818658013, 48.8472381327386]},
        "properties": { "station": "Reuilly-Diderot",
						"color":  [242,201,49],
						"ID": "1662",
						"status" : "opened"}
        },
		{ "type": "Feature",
        "geometry": {"type": "Point", "coordinates": [2.39590574456544, 48.8484657505532]},
        "properties": { "station": "Nation",
						"color":  [242,201,49],
						"ID": "1758",
						"status" : "opened"}
        },	
		{ "type": "Feature",
        "geometry": {"type": "Point", "coordinates": [2.40888352534985, 48.8472657113718]},
        "properties": { "station": "Porte de Vincennes",
						"color":  [242,201,49],
						"ID": "1733",
						"status" : "opened"}
        },	
		{ "type": "Feature",
        "geometry": {"type": "Point", "coordinates": [2.41867310093048, 48.8462977572576]},
        "properties": { "station": "Saint-Mandé",
						"color":  [242,201,49],
						"ID": "1690",
						"status" : "opened"}
        },	
		{ "type": "Feature",
        "geometry": {"type": "Point", "coordinates": [2.42923849792977, 48.8453342425325]},
        "properties": { "station": "Bérault",
						"color":  [242,201,49],
						"ID": "1938",
						"status" : "opened"}
        },	
		{ "type": "Feature",
        "geometry": {"type": "Point", "coordinates": [2.43950970545674, 48.8445363116503]},
        "properties": { "station": "Château de Vincennes",
						"color":  [242,201,49],
						"ID": "1962",
						"status" : "opened"}
        }		
       ],
	"properties": { "line": "line_1",
					"color":  [242,201,49]}
     }